[
  {
    "description":"СПбГЭТУ «ЛЭТИ»",
    "id":"00",
    "lat":"59.971186",
    "lon":"30.320827",
    "name":"ул. Профессора Попова, д. 5",
    "quest":"Финиш"
  },
  {
    "description":"Система дворов",
    "id":"01",
    "lat":"59.970709",
    "lon":"30.305942",
    "name":"Каменноостровский пр, д. 50",
    "quest":"Знак на стене"
  },
  {
    "description":"",
    "id":"02",
    "lat":"59.966794",
    "lon":"30.301257",
    "name":"ул. Плуталова, д. 2",
    "quest":"Номер на двери, выходящей в подворотню"
  },
  {
    "description":"Система дворов",
    "id":"03",
    "lat":"59.946146",
    "lon":"30.283254",
    "name":"1-я линия В.О., д. 52",
    "quest":"Знак во дворе"
  },
  {
    "description":"",
    "id":"04",
    "lat":"59.942825",
    "lon":"30.287546",
    "name":"ул. Репина, участок между дд. 27 и 33",
    "quest":"Номер трансформаторной будки"
  },
  {
    "description":"Памятник Нобелю",
    "id":"11",
    "lat":"59.960746",
    "lon":"30.334989",
    "name":"Петроградская наб.",
    "quest":"Число витков на «пружине», обращенной к Пинскому переулку"
  },
  {
    "description":"Двор",
    "id":"12",
    "lat":"59.947613",
    "lon":"30.337329",
    "name":"наб. р. Фонтанки, д. 2",
    "quest":"Подпись судьи"
  },
  {
    "description":"Подъезд и квартира с пометкой «Stranger»",
    "id":"21",
    "lat":"59.944616",
    "lon":"30.352043",
    "name":"Кирочная ул., д. 8",
    "quest":"Подпись судьи"
  },
  {
    "description":"Трансформаторная будка в системе дворов",
    "id":"22",
    "lat":"59.941732",
    "lon":"30.346141",
    "name":"Моховая ул., д. 26",
    "quest":"Номер трансформаторной будки"
  },
  {
    "description":"Подъезд №6, 3-й этаж",
    "id":"23",
    "lat":"59.941790",
    "lon":"30.358709",
    "name":"Гродненский пер., д. 2",
    "quest":"Знак на стене"
  },
  {
    "description":"Подъезд №1, стена на левой лестнице",
    "id":"24",
    "lat":"59.941790",
    "lon":"30.358709",
    "name":"Гродненский пер., д. 2",
    "quest":"Знак на стене"
  },
  {
    "description":"Двор. Фронтон на правом внутреннем фасаде",
    "id":"25",
    "lat":"59.937224",
    "lon":"30.349564",
    "name":"Литейный пр., д. 46",
    "quest":"Девиз на фронтоне"
  },
  {
    "description":"Магазин «Терра»",
    "id":"31",
    "lat":"59.934686",
    "lon":"30.347713",
    "name":"Литейный пр., д. 57",
    "quest":"Подпись судьи"
  },
  {
    "description":"Чердак",
    "id":"32",
    "lat":"59.925985",
    "lon":"30.341883",
    "name":"Загородный пр., д. 13",
    "quest":"Знак на стене или опоре крыши"
  },
  {
    "description":"РГПУ им. Герцена. Корпус №20. Храм апп. Петра и Павла, клуб «Трилистник»",
    "id":"33",
    "lat":"59.935308",
    "lon":"30.320225",
    "name":"наб. р. Мойки, д. 48",
    "quest":"Подпись судьи"
  },
  {
    "description":"Трансформаторная будка во дворе",
    "id":"34",
    "lat":"59.927189",
    "lon":"30.327888",
    "name":"Апраксин пер., д. 17",
    "quest":"Номер трансформаторной будки"
  },
  {
    "description":"Система дворов",
    "id":"35",
    "lat":"59.928465",
    "lon":"30.343473",
    "name":"ул. Рубинштейна, д. 19 (дом Ольги Берггольц)",
    "quest":"4 знака на стенах"
  },
  {
    "description":"",
    "id":"41",
    "name":"Новоадмиралтейский кан., д.4, кв.XX (Квартира С. П. Боткина)",
    "quest":"Подпись судьи"
  },
  {
    "description":"Трансформаторная будка во дворе",
    "id":"42",
    "lat":"59.930047",
    "lon":"30.288119",
    "name":"Адмиралтейский кан., д. 17",
    "quest":"Номер трансформаторной будки"
  },
  {
    "description":"Подъезд со входом со двора, первый слева",
    "id":"43",
    "lat":"59.922941",
    "lon":"30.297066",
    "name":"Крюков кан., д. 5",
    "quest":"Номер «Квартиры высокой культуры быта»"
  },
  {
    "description":"Внешняя стена",
    "id":"44",
    "lat":"59.915973",
    "lon":"30.313452",
    "name":"Державинский пер., д. 2",
    "quest":"Знак на уровне 2-го этажа"
  },
  {
    "description":"Насыпь",
    "id":"45",
    "name":"Участок Обводного канала меджу Рузовским и Ипподромным мостами",
    "quest":"Знак на облицовке набережной"
  },
  {
    "description":"Двор",
    "id":"46",
    "lat":"59.927522",
    "lon":"30.300803",
    "name":"Львиный пер.",
    "quest":"Ответ на вопрос «Кем установлены ворота во двор?»"
  },
  {
    "description":"Подворотня",
    "id":"47",
    "lat":"59.926968",
    "lon":"30.303516",
    "name":"кан. Грибоедова, д. 75",
    "quest":"Знак на стене"
  },
  {
    "description":"Лестница №1",
    "id":"48",
    "lat":"59.926341",
    "lon":"30.312562",
    "name":"Столярный пер., д. 13",
    "quest":"Слово, выложенное на полу подъезда"
  },
  {
    "description":"Хранилище напротив дома",
    "id":"51",
    "lat":"59.888329",
    "lon":"30.350804",
    "name":"ул. Витебская-Сортировочная, д. 16",
    "quest":"Подпись судьи"
  },
  {
    "description":"",
    "id":"52",
    "lat":"59.899270",
    "lon":"30.369713",
    "name":"Дубровская ул., д. 14",
    "quest":"Знак на доме"
  },
  {
    "description":"",
    "id":"53",
    "name":"Станция «Пролетарская» Санкт-Петербургского метрополитена",
    "quest":"Подпись судьи"
  },
  {
    "description":"",
    "id":"54",
    "name":"Ж/д мост (электрифицированная ветка) через Большую Охту",
    "quest":"Знак на опорах моста"
  },
  {
    "description":"Автобусная станция «Пороховые»",
    "id":"55",
    "name":"Угол Ириновского пр. и ул. Коммуны",
    "quest":"Знак на стене станции"
  },
  {
    "description":"",
    "id":"56",
    "name":"Участок напротив дд. 37-41 по Капсюльному шоссе",
    "quest":"Подпись судьи"
  },
  {
    "description":"",
    "id":"61",
    "lat":"59.979372",
    "lon":"30.402906",
    "name":"ул. Замшина, д. 54, кв. XXX",
    "quest":"Подпись судьи"
  },
  {
    "description":"Памятник В.И. Чапаеву",
    "id":"62",
    "lat":"60.008999",
    "lon":"30.376352",
    "name":"ул. Гидротехников",
    "quest":"Сосчитать количество головных уборов всех типов"
  },
  {
    "description":"Дача Бенуа",
    "id":"63",
    "name":"Участок ул. Веденеева - Светлановский пр.- Тихорецкий пр.- пр. Науки",
    "quest":"Знак на развалинах"
  },
  {
    "description":"",
    "id":"64",
    "lat":"60.037261",
    "lon":"30.361826",
    "name":"пр. Луначарского д. 76, кв. XXX",
    "quest":"Печать судьи"
  },
  {
    "description":"",
    "id":"71",
    "lat":"60.019653",
    "lon":"30.314170",
    "name":"Удельный пр., д. 31, кв. XX",
    "quest":"Подпись судьи"
  },
  {
    "description":"Трансформаторная будка рядом с домом",
    "id":"72",
    "lat":"59.996205",
    "lon":"30.347947",
    "name":"Новороссийская ул., д. 38",
    "quest":"Номер трансформаторной будки"
  },
  {
    "description":"Автобусная остановка",
    "id":"73",
    "name":"Угол Лисичанской ул. и Вазасского пер.",
    "quest":"Расписание автобуса №25А"
  },
  {
    "description":"",
    "id":"74",
    "lat":"59.985836",
    "lon":"30.314386",
    "name":"Лисичанская ул., д. 12",
    "quest":"Номер трансформаторной будки"
  },
  {
    "description":"Забор напротив завода абразивных материалов «Ильич»",
    "id":"75",
    "lat":"59.982329",
    "lon":"30.322614",
    "name":"Красногвардейский пер.",
    "quest":"Знак на заборе"
  },
  {
    "description":"Автомобиль «Запорожец»",
    "id":"76",
    "lat":"59.978160",
    "lon":"30.312194",
    "name":"ул. Академика Павлова, дд. 9 и 14а",
    "quest":"Номер автомобиля"
  },
  {
    "description":"Улица, переименованная аборигенами в The Doors Street",
    "id":"77",
    "name":"Район, ограниченный Невой, Черной речкой, улицами Академиков Шиманского и Крылова",
    "quest":"Номер почтового отделения"
  },
  {
    "description":"Городское кольцо трамвая № 36. Забор напротив трамвайной остановки",
    "id":"81",
    "lat":"59.868519",
    "lon":"30.236053",
    "name":"Дорога на Турухтанные острова",
    "quest":"Знак на заборе"
  },
  {
    "description":"Табличка на стене во дворе",
    "id":"82",
    "lat":"59.925398",
    "lon":"30.371806",
    "name":"Миргородская ул., д. 12",
    "quest":"Ответ на вопрос «Кто благоустроил двор?»"
  },
  {
    "description":"СПбГЭТУ «ЛЭТИ»",
    "id":"99",
    "lat":"59.971186",
    "lon":"30.320827",
    "name":"ул. Профессора Попова, д. 5",
    "quest":"Старт"
  }
]