[
  {
    "description":"СПбГЭТУ «ЛЭТИ»",
    "id":"00",
    "lat":"59.971186",
    "lon":"30.320827",
    "name":"ул. Профессора Попова, д. 5",
    "quest":"Старт"
  },
  {
    "description":"",
    "id":"01",
    "lat":"59.970614",
    "lon":"30.345234",
    "name":"ул. Смолячкова, д. 15",
    "quest":"Подпись судьи (Марьяна)"
  },
  {
    "description":"а/м ВАЗ 2104",
    "id":"02",
    "lat":"59.977620",
    "lon":"30.427376",
    "name":"ул. Бестужевская, участок между дд. 57 и 61",
    "quest":"Подпись судьи (Александр)"
  },
  {
    "description":"дуб Петра Великого",
    "id":"03",
    "lat":"59.977364",
    "lon":"30.289224",
    "name":"Каменный остров",
    "quest":"Подпись судьи (Сергей, Евгений)"
  },
  {
    "description":"Подвал турклуба СпбГУ",
    "id":"04",
    "lat":"59.943318",
    "lon":"30.298827",
    "name":"Менделеевская линия, д. 5",
    "quest":"Подпись судьи (Дмитрий)"
  },
  {
    "description":"",
    "id":"05",
    "name":"Въезд в Канонерский тоннель",
    "quest":"Подпись судьи (Надежда) и Номер МО на информационном щите на Канонерском острове"
  },
  {
    "description":"",
    "id":"06",
    "lat":"59.891913",
    "lon":"30.277052",
    "name":"Сад 9-го января",
    "quest":"Подпись судьи (Сергей)"
  },
  {
    "description":"",
    "id":"07",
    "lat":"59.850043",
    "lon":"30.198216",
    "name":"ул. Десантников, д. 28",
    "quest":"Подпись судьи (Кирилл, Настя)"
  },
  {
    "description":"",
    "id":"08",
    "lat":"59.852190",
    "lon":"30.279028",
    "name":"Ленинский пр., д. 138/5",
    "quest":"Подпись судьи (Ирина Яковлевна)"
  },
  {
    "description":"",
    "id":"09",
    "lat":"59.864164",
    "lon":"30.296716",
    "name":"ул. Бассейная, д. 1",
    "quest":"Подпись судьи (Дима, Маша)"
  },
  {
    "description":"",
    "id":"10",
    "lat":"59.839285",
    "lon":"30.494830",
    "name":"Шлиссельбургский пр., д. 17",
    "quest":"Срисовать знак, оставить запись в протоколе"
  },
  {
    "description":"",
    "id":"11",
    "lat":"59.926837",
    "lon":"30.377564",
    "name":"Невский пр., д. 164",
    "quest":"Подпись судьи (Маша)"
  },
  {
    "description":"СПбГЭТУ «ЛЭТИ»",
    "id":"12",
    "lat":"59.971186",
    "lon":"30.320827",
    "name":"ул. Профессора Попова, д. 5",
    "quest":"Финиш"
  }
]