[
  {
    "description":"СПбГЭТУ «ЛЭТИ»",
    "id":"00",
    "lat":"59.971186",
    "lon":"30.320827",
    "name":"ул. Профессора Попова, д. 5",
    "quest":"Старт"
  },
  {
    "description":"Трансформаторная будка на участке между домами",
    "id":"01",
    "lat":"59.952358",
    "lon":"30.243185",
    "name":"пер. Каховского, дд. 3 и 5а",
    "quest":"Номер трансформаторной будки"
  },
  {
    "description":"",
    "id":"02",
    "name":"Кожевенная лин., д. 38",
    "quest":"Год, обозначенный на флюгере"
  },
  {
    "description":"",
    "id":"03",
    "name":"Косая лин., д. 24",
    "quest":"Знак во дворе"
  },
  {
    "description":"Участок, обнесенный деревянным забором",
    "id":"04",
    "lat":"59.938495",
    "lon":"30.208735",
    "name":"пл. Европы",
    "quest":"Знак на заборе"
  },
  {
    "description":"Кафедра философии РАН",
    "id":"05",
    "name":"Биржевая лин., д. 1 (в легендах ошибочно — Менделеевская лин.)",
    "quest":"Знак на заборе"
  },
  {
    "description":"Трансформаторная будка во дворе",
    "id":"06",
    "lat":"59.941349",
    "lon":"30.303058",
    "name":"Таможенный пер., д. 2",
    "quest":"Номер трансформаторной будки"
  },
  {
    "description":"",
    "id":"07",
    "lat":"59.938144",
    "lon":"30.308529",
    "name":"Черноморский пер., д. 4",
    "quest":"Номер трансформаторной будки"
  },
  {
    "description":"Автобусная остановка со старым «аншлагом» (вывеской «А»)",
    "id":"08",
    "lat":"59.933163",
    "lon":"30.306023",
    "name":"Исаакиевская пл.",
    "quest":"Время первого рейса действующего автобусного маршрута"
  },
  {
    "description":"Подъезд 6",
    "id":"09",
    "lat":"59.925903",
    "lon":"30.298126",
    "name":"Театральная пл., д. 3",
    "quest":"Подпись судьи"
  },
  {
    "description":"Кофейня «Идеальная Чашка»",
    "id":"10",
    "lat":"59.936377",
    "lon":"30.242799",
    "name":"7 лин. В.О., д. 28",
    "quest":"Подпись судьи"
  },
  {
    "description":"Опора прожекторов в сквере",
    "id":"11",
    "name":"Угол Чкаловского пр. и Левашовского пр.",
    "quest":"Количество прожекторов на опоре"
  },
  {
    "description":"",
    "id":"12",
    "lat":"59.958670",
    "lon":"30.306993",
    "name":"ул. Кропоткина, д. 19/8",
    "quest":"Знак на стене дома"
  },
  {
    "description":"",
    "id":"13",
    "lat":"59.964178",
    "lon":"30.300651",
    "name":"ул. Ленина, д. 35",
    "quest":"Знак на брандмауэре справа"
  },
  {
    "description":"",
    "id":"14",
    "name":"Угол ул. Даля и наб. р. Карповки",
    "quest":"Знак на бетонном блоке"
  },
  {
    "description":"",
    "id":"15",
    "lat":"59.963800",
    "lon":"30.285784",
    "name":"ул. Большая Зеленина, д. 28",
    "quest":"Номер телефона в окнах 5-го этажа"
  },
  {
    "description":"Бетонная тумба во дворе",
    "id":"16",
    "lat":"59.970790",
    "lon":"30.311520",
    "name":"ул. Профессора Попова, д. 12",
    "quest":"Знак"
  },
  {
    "description":"Объявление на заборе",
    "id":"20",
    "lat":"59.906747",
    "lon":"30.298369",
    "name":"наб. Обводного канала, д. 120а",
    "quest":"Ответ на вопрос «Что предлгают по телефону 168-29-31?»"
  },
  {
    "description":"Система дворов",
    "id":"21",
    "lat":"59.904094",
    "lon":"30.290985",
    "name":"ул. Шкапина, д. 19",
    "quest":"Знак на внешней шахте лифта"
  },
  {
    "description":"",
    "id":"22",
    "lat":"59.844606",
    "lon":"30.127006",
    "name":"ул. Пионерстроя, д. 7-2 (в легендах ошибочно — ул. Чекистов)",
    "quest":"3 знака на стенах дома"
  },
  {
    "description":"",
    "id":"23",
    "lat":"59.839099",
    "lon":"30.146257",
    "name":"ул. Пограничника Гарькавого, д. 19-1",
    "quest":"Количество балясин на арке"
  },
  {
    "description":"Скамейка у 2 подъезда",
    "id":"24",
    "lat":"59.827542",
    "lon":"30.172021",
    "name":"ул. Партизана Германа, д. 41-3",
    "quest":"Подпись судьи"
  },
  {
    "description":"Дот у Чесменского дворца",
    "id":"25",
    "lat":"59.857328",
    "lon":"30.327798",
    "name":"ул. Гастелло, д. 15",
    "quest":"Знак на доте"
  },
  {
    "description":"",
    "id":"26",
    "name":"Полустанок на перегоне между ж/д станциями «Корпусное Шоссе» и «Броневая»",
    "quest":"Знак на кирпичной башне"
  },
  {
    "description":"Конечная остановка трамвайного маршрута № 36. Забор напротив трамвайной остановки",
    "id":"27",
    "lat":"59.868519",
    "lon":"30.236053",
    "name":"Дорога на Турухтанные острова",
    "quest":"Знак на заборе"
  },
  {
    "description":"",
    "id":"28",
    "lat":"59.814980",
    "lon":"30.290015",
    "name":"ул. Штурманская, д. 38",
    "quest":"Знак на постройке за домом"
  },
  {
    "description":"Двор",
    "id":"30",
    "lat":"59.932581",
    "lon":"30.322821",
    "name":"ул. Казанская (Центральный р-н), д. 8",
    "quest":"Знак между двумя арками"
  },
  {
    "description":"",
    "id":"31",
    "name":"наб. кан. Грибоедова, д. 29",
    "quest":"Телефон организации, установившей детскую площадку"
  },
  {
    "description":"",
    "id":"32",
    "name":"Система дворов, соединяющая дома 23 по ул.Рубинштейна и 62 по наб. р. Фонтанки",
    "quest":"Знак на стене"
  },
  {
    "description":"Дворы",
    "id":"33",
    "lat":"59.924686",
    "lon":"30.329343",
    "name":"наб. р. Фонтанки, д. 90",
    "quest":"Знак на вентиляционной шахте метро"
  },
  {
    "description":"Двор",
    "id":"34",
    "lat":"59.923162",
    "lon":"30.329145",
    "name":"Большой Казачий пер., д. 4",
    "quest":"Знак на стене"
  },
  {
    "description":"Первый с улицы двор",
    "id":"35",
    "lat":"59.923017",
    "lon":"30.329567",
    "name":"Гороховая ул., д. 65",
    "quest":"Знак на стене"
  },
  {
    "description":"Двор",
    "id":"36",
    "lat":"59.924605",
    "lon":"30.317359",
    "name":"Московский пр., д. 7в",
    "quest":"Знак на стене справа"
  },
  {
    "description":"Система дворов",
    "id":"37",
    "lat":"59.918070",
    "lon":"30.305133",
    "name":"наб. р. Фонтанки, д. 128",
    "quest":"Номер трансформаторной будки"
  },
  {
    "description":"Клёны, посаженные в 1995 году двумя заместителями А. Собчака",
    "id":"38",
    "lat":"59.912621",
    "lon":"30.324366",
    "name":"Малодетскосельский пр.",
    "quest":"День и месяц посадки"
  },
  {
    "description":"",
    "id":"39",
    "lat":"59.909287",
    "lon":"30.312796",
    "name":"наб. Обводного Канала, д. 145, кв. ХХ, код ХХХ",
    "quest":"Подпись судьи"
  },
  {
    "description":"Пешеходный мост",
    "id":"41",
    "lat":"59.879493",
    "lon":"30.407101",
    "name":"Ж/д ст. Фарфоровская",
    "quest":"Подпись судьи"
  },
  {
    "description":"Постройка, напротив дома",
    "id":"42",
    "lat":"59.903386",
    "lon":"30.427879",
    "name":"Перевозная наб., д. 29",
    "quest":"Знак"
  },
  {
    "description":"",
    "id":"43",
    "lat":"59.904572",
    "lon":"30.399079",
    "name":"ул. 2-й Луч, д. 13",
    "quest":"Количество карет рядом с домом"
  },
  {
    "description":"Эстакада моста в районе ул. Хрустальная и ул. Фаянсовая",
    "id":"44",
    "lat":"59.913965",
    "lon":"30.404631",
    "name":"Финляндский ж/д мост",
    "quest":"Знак на опоре"
  },
  {
    "description":"",
    "id":"45",
    "name":"Бывшая конечная трамвайная станция «Станция Нева»",
    "quest":"Знак на заборе"
  },
  {
    "description":"",
    "id":"50",
    "lat":"59.919053",
    "lon":"30.343779",
    "name":"Стадион «Локомотив»",
    "quest":"Знак на секции бетонного забора"
  },
  {
    "description":"Магазин «Терра»",
    "id":"51",
    "lat":"59.922251",
    "lon":"30.354702",
    "name":"Лиговский пр., д. 101",
    "quest":"Подпись судьи"
  },
  {
    "description":"4 лестница (возле заросшей глухой стены)",
    "id":"52",
    "lat":"59.934488",
    "lon":"30.360604",
    "name":"ул. Восстания, д. 15",
    "quest":"Максимальный номер квартиры"
  },
  {
    "description":"Лестница во дворе на уровне третьего этажа",
    "id":"53",
    "lat":"59.933879",
    "lon":"30.366704",
    "name":"4-я Советская ул., д. 5",
    "quest":"Число ступеней на лестнице"
  },
  {
    "description":"Памятник фонарщику",
    "id":"54",
    "lat":"59.945220",
    "lon":"30.387293",
    "name":"ул. Одесская",
    "quest":"Число перекладин на лестнице"
  },
  {
    "description":"Схема крепости",
    "id":"55",
    "lat":"59.995962",
    "lon":"30.489468",
    "name":"Памятный знак «Ниеншанц» в устье р. Охта",
    "quest":"Расшифровка пункта «P» на шведском языке"
  },
  {
    "description":"Трансформаторная будка на участке между домами",
    "id":"56",
    "lat":"59.932951",
    "lon":"30.322605",
    "name":"ул. Казанская (Красногвардейский р-н), дд. 6 и 8",
    "quest":"Номер трансформаторной будки"
  },
  {
    "description":"Подъезд 11",
    "id":"57",
    "lat":"59.925885",
    "lon":"30.361296",
    "name":"Лиговский пр., д. 44 (Дом Перцова)",
    "quest":"Минимальный и максимальный номера комнат на 5-м этаже"
  },
  {
    "description":"Третий от улицы двор, правый подъезд",
    "id":"58",
    "lat":"59.920036",
    "lon":"30.343482",
    "name":"ул. Марата, д. 72",
    "quest":"Номер квартиры на последнем этаже"
  },
  {
    "description":"Галерея Митьки-ВХУТЕМАС",
    "id":"59",
    "lat":"59.922156",
    "lon":"30.341084",
    "name":"ул. Правды, д. 16, кв. ХХ",
    "quest":"Подпись судьи"
  },
  {
    "description":"Двор",
    "id":"61",
    "lat":"60.001055",
    "lon":"30.354720",
    "name":"ул. Болотная, д. 13",
    "quest":"Подпись судьи"
  },
  {
    "description":"Здание Консульства Словакии у Серебряного Пруда",
    "id":"62",
    "lat":"60.003898",
    "lon":"30.344920",
    "name":"ул. Орбели, д. 21-3",
    "quest":"Число окон на западной стороне"
  },
  {
    "description":"",
    "id":"63",
    "lat":"60.002746",
    "lon":"30.280753",
    "name":"Серебристый бул., д. 16-1, кв. ХХХ",
    "quest":"Подпись судьи"
  },
  {
    "description":"Трамвайное кольцо",
    "id":"64",
    "lat":"59.990282",
    "lon":"30.353741",
    "name":"Ж/д ст. Кушелевка",
    "quest":"Знак на заборе"
  },
  {
    "description":"- Вот, Василь Иваныч, война окончится, ...... построим - Ага, и два пулемета на крышу - Зачем?!?! - Н-ну, чтобы консервы не разворовали!!!",
    "id":"71",
    "longanswer":"Театральная пл., д.3, Санкт-Петербургская Государственная Консерватория им. Н.А. Римского-Корсакова.",
    "name":"Загадка",
    "quest":"Вот в ...... (в 6-м подъезде), вам и выдадут первое задание (пулеметов, кстати, там так и не поставили)"
  },
  {
    "description":"См. фотографию.",
    "id":"72",
    "image":"http://img.runcity.org/img/routes/2004-cp72-med.jpg",
    "longanswer":"Над домом виден купол Троицкого собора. Крест, ориентированный почти перпендикулярно камере, подсказывает возможные направления поиска. Определив это, найти нужный двор уже не составит большого труда - наб. р. Фонтанки, система дворов от дома 126.",
    "name":"Загадка",
    "quest":"Найдите в этом дворе трансформаторную будку, и спишите номер"
  },
  {
    "description":"«...Выхожу на проспект и сворачиваю на набережную канала. Не торопясь, двигаюсь к возвышающейся впереди цветистой, московского типа церкви, которая, не уместившись на суше, сползла с берега на воду, точнее - на лед, засыпанный собранным на улицах грязным снегом. Дойдя до горбатого мостика с фонарями, перехожу на другой берег и продолжаю двигаться вперед, разглядывая на ходу разноцветные главы причудливого храма. Его кресты сияют золотом на фоне все еще голубого, хотя уже и не столь прозрачного, тускнеющего неба...» (Геннадий Алексеев, «Зеленые Берега»). Свернуть с проспекта в другую сторону, и идти до улицы, имеющий прямоугольный изгиб.",
    "id":"73",
    "longanswer":"Загадана ул. Казанская Центрального района. Здесь, к сожалению, допустил ошибку постановщик задачи, принявший дома по Казанской площади (участок за собором) за дома по Казанской улице, откуда и возникла формулировка о прямоугольном изгибе. Заметим, однако, что предположение некоторых участников о Москательном переулке было также формально неверным - в приведенном отрывке автор, двигаясь по Невскому со стороны Адмиралтейства, сворачивает на набережную, еще не перейдя канал.",
    "name":"Загадка",
    "quest":"На ней во дворе дома № 8 найти знак."
  },
  {
    "description":"Работа первых невозможна без результата труда вторых. И тем, и другим досталось по три топонима на одном острове.От перекрестка «меньших» из первых взять 50 метров строго на юг.",
    "id":"74",
    "longanswer":"Топонимы первых - Пушкарские, вторых - Зеленины. Название «Зеленина» есть искаженное «Зелейная», от «зелье» - порох. Очевидно, что работа пушкарей без пороха невозможна. Остров в данном случае - Петроградский. Загадано пересечение Малой Пушкарской и Пушкарского переулка. Искомый дом - Кропоткина, д. 19/8.",
    "name":"Загадка",
    "quest":"Срисовать знак"
  },
  {
    "description":"Памятник мальчику с ружьем - на проспекте с самым коротким названием. Памятник благородным бунтарям - в одноименном саду.",
    "id":"75",
    "longanswer":"Речь идёт о памятнике «Юнгам Балтики» (на площади Балтийских Юнг, которую пересекает проспект КИМа) и памятнике в саду Декабристов на предположительном месте их захоронения. Если соединить эти две точки на карте отрезком, то середина его придется как раз на искомый двор - пер. Каховского, участок между домами 3 и 5а.",
    "name":"Загадка",
    "quest":"Посредине между двумя памятниками найти трансформаторную будку и списать ее номер."
  },
  {
    "description":"Они бывают именованные и нумерованные, но все прямые, кроме одной. Номер дома на ней получается прибавлением часа начала стартов в вашей категории к максимальному номеру из нумерованных.",
    "id":"76",
    "longanswer":"Кожевенная линия действительно не прямая - она имеет несколько изгибов и один разрыв. Нумерованных линий на Васильевском острове 29 штук. А первые «Сфинксы» ушли со старта в 9:00.",
    "name":"Загадка",
    "quest":"Найти дом, списать число на флюгере."
  },
  {
    "description":"Самая новая кофейня одного из наших спонсоров.",
    "id":"77",
    "longanswer":"Загадана была «Идеальная Чашка» на 7 линии В.О., д. 28. Загадка была сформулирована верно - согласно сведениям, предоставленным оргкомитету администрацией «Идеальной Чашки». К сожалению, при этом не было учтено, что три новейших на тот момент кофейни (одна из них искомая) были открыты примерно в одно время, из-за чего разные источники давали разные ответы о том, какая «Идеальная Чашка» самая новая.",
    "name":"Загадка",
    "quest":"Подпись судьи."
  },
  {
    "description":"Это фото послужило основой для значка «Бегущий Город 2oo2».От точки съемки этого кадра, оставив воду по правую руку, пойти вперед. Пропустив один переулок, свернуть во второй. Идти прямо, потом по улице направо до дома с курдонёром (фасадом-двором).",
    "id":"78",
    "image":"http://img.runcity.org/img/routes/2004-cp78-med.jpg",
    "longanswer":"Знак находится в системе дворов, соединяющей дома 23 по ул. Рубинштейна и 62 по наб. р. Фонтанки. По характерному спуску к воде определяется Фонтанка, дальше по наличию деревьев или изгиба реки можно найти попавшее в кадр место и определить точку съемки на другом берегу. Переулки - Графский и Щербаков, дом с курдонёром - Рубинштейна, д. 23.",
    "name":"Загадка",
    "quest":"На стене с обратной стороны этого дома найти знак."
  },
  {
    "description":"«После осады гарнизон сдал крепость и свободно покинул ее. Остатки укреплений пошли на строительство новой крепости и города.» Памятный знак на месте описанных событий.",
    "id":"79",
    "longanswer":"Загадан памятный знак на месте крепости Ниеншанц в устье р. Охты.",
    "name":"Загадка",
    "quest":"Расшифровка пункта «О» на карте"
  },
  {
    "description":"Три переулка соединены на карте Петербурга. Источники их имен соединены на карте мира.",
    "id":"80",
    "longanswer":"Три переулка - Черноморский, Керченский, Азовский. Трансформаторная будка была у дома 4 по Черноморскому пер.",
    "name":"Загадка",
    "quest":"В одном из переулков найти трансформаторную будку, списать номер."
  },
  {
    "description":"Автомобильный проезд под площадью.",
    "id":"81",
    "longanswer":"Площадь Победы, тоннель между ул. Орджоникидзе и Краснопутиловской.",
    "name":"Загадка",
    "quest":"Знак на стене тоннеля"
  },
  {
    "description":"Сооружение, стоящее рядом с дворцом, подобно Петропавловской крепости как своим прямым назначением, так и тем, что ни разу по нему не использовалось. Дворец же, как и церковь, отделенная от него улицей, назван в честь одной из побед русского оружия.",
    "id":"82",
    "longanswer":"Загадан дот у Чесменского дворца (ул. Гастелло, д. 15). Чесменский дворец, являющийся сейчас одним из корпусов СПбГУАП, был построен архитектором Фельтеном в ансамбле с Чесменской церковью (св. Иоанна Предтечи). Сейчас эти здания находятся по разные стороны ул. Ленсовета.",
    "name":"Загадка",
    "quest":"Знак на указанном сооружении."
  },
  {
    "description":"Проспект на месте канала. Магазин в доме 101.",
    "id":"83",
    "longanswer":"Лиговский проспект находится на месте засыпанного Лиговского канала.",
    "name":"Загадка",
    "quest":"Подпись судьи"
  },
  {
    "description":"Дом на фото находится на бывшей улице Салтыкова-Щедрина. Идти по направлению стрелки до ближайшего проспекта, по нему - в северном направлении до второй улицы, уходящей налево.",
    "id":"84",
    "image":"http://img.runcity.org/img/routes/2004-cp84-med.jpg",
    "longanswer":"На фотографии изображен перекресток Кирочной ул. и ул. Радищева. Но стрелка на знаке указывает не в сторону Литейного моста, а в противоположную, показывая ведущий к мосту автомобильный объезд. Упоминаемый проспект - Суворовский. А загадана была лестница в памятнике фонарщику на ул. Одесская.",
    "name":"Загадка",
    "quest":"На улице найти памятник и описать предмет, на который облокотилась статуя."
  },
  {
    "description":"«...дабы построить на свободном месте концертный зал. В такой архитектуре есть что-то безнадежное. А впрочем, концертный зал на тыщу с лишним мест не так уж безнадежен: это - храм, и храм искусства. Кто же виноват, что мастерство вокальное дает сбор больший, чем знамена веры? Жаль только, что теперь издалека мы будем видеть не нормальный купол, а безобразно плоскую черту. Но что до безобразия пропорций, то человек зависит не от них, а чаще от пропорций безобразья.» (Иосиф Бродский) Встав спиной к новому на проспекте старого, во дворе за второй подворотней по правой стороне правой же улицы найти лестницу в неожиданном месте.",
    "id":"85",
    "longanswer":"На месте БКЗ «Октябрьский» ещё в 60-х гг. XX в. стояла Греческая церковь. По ней был назван и проходящий рядом Греческий проспект. Точка начала движения по алгоритму - тыльная сторона БКЗ, выходящая на Греческий. КП находился по адресу 4-я Советская ул., д. 5, лестница во дворе на уровне третьего этажа.",
    "name":"Загадка",
    "quest":"Сосчитать число ступеней"
  },
  {
    "description":"Восточное кольцо трамвайного маршрута с наибольшим номером, проходящего мимо самой северной из станций Петербургского метрополитена, где установлен памятник А.С.Пушкину.",
    "id":"86",
    "longanswer":"Памятники Пушкину есть на двух станциях Петербургского Метрополитена - «Пушкинская» и «Черная речка». Последняя, очевидно, самая северная из двух. Максимальный номер трамвая там - 48. Загадано было Трамвайное кольцо у ж/д ст. Кушелевка.",
    "name":"Загадка",
    "quest":"Знак на заборе."
  },
  {
    "description":"Большинство станций Петербургского Метрополитена названы по месту нахождения, и только одна - в память некоего события. Квартал, в котором она расположена, ограничен бульваром и тремя проспектами.На том же отрезке бульваре, но противоположной от метро его стороне найти самый длинный дом.",
    "id":"87",
    "longanswer":"Станция метро «Пионерская» названа так в 1981 году в честь 60-летия пионерской организации. Загаданы были проспекты - Испытателей, Коломяжский, Богатырский и Серебристый бульвар.",
    "name":"Загадка",
    "quest":"Получить подпись в квартире ХХХ."
  },
  {
    "description":"Мост, который разводится «не по-питерски».",
    "id":"88",
    "longanswer":"Финляндский ж/д мост разводится путём подъема одного пролёта, остающегося при этом в горизонтальном положении. КП находился в районе ул. Хрустальная и ул. Фаянсовая.",
    "name":"Загадка",
    "quest":"Знак на опоре на левом берегу."
  },
  {
    "description":"Забор рядом с домом, где находится последняя петербургская квартира А.С Попова.",
    "id":"89",
    "longanswer":"Последняя квартира А.С. Попова находился в доме, входящем в комплекс зданий СПбГЭТУ «ЛЭТИ» (корпус «D»).",
    "name":"Загадка",
    "quest":"Финиш"
  },
  {
    "description":"Бывшая конечная трамвайная станция, название которой совпадает с именем реки, мост через которую носит то же имя, что и трамвайный парк, маршруты которого делали кольцо на этой станции.",
    "id":"90",
    "longanswer":"Бывшая трамвайная станция «Нева». Одноименная река очевидна. Вторая пара имен - мост Володарского и трамвайный парк №7 имени Володарского.",
    "name":"Загадка",
    "quest":"Знак на заборе столбе."
  },
  {
    "description":"Магазин «Терра»",
    "id":"98",
    "lat":"59.922251",
    "lon":"30.354702",
    "name":"Лиговский пр., д. 101",
    "quest":"Финиш"
  },
  {
    "description":"СПбГЭТУ «ЛЭТИ»",
    "id":"99",
    "lat":"59.971186",
    "lon":"30.320827",
    "name":"ул. Профессора Попова, д. 5",
    "quest":"Финиш"
  }
]