[
  {
    "answer":"Старт",
    "description":"Старт",
    "history":"0",
    "id":"00",
    "name":"ЛЭТИ. Старт",
    "quest":"Старт"
  },
  {
    "answer":"Старт",
    "description":"",
    "id":"01",
    "name":"Cквер на углу Приморского проспекта и улицы Академика Крылова",
    "quest":"Старт"
  },
  {
    "answer":"28",
    "description":"Памятная табличка о посадке дерева",
    "id":"02",
    "name":"Участок между домами 9/1 и 11 по Торжковской ул.",
    "quest":"Сумма цифр"
  },
  {
    "answer":"8",
    "description":"Пешеходные переходы",
    "id":"03",
    "name":"Пересечение Кемской ул. и Динамовской ул.",
    "quest":"Количество знаков \"Пешеходный переход\" на перекрестке"
  },
  {
    "answer":"4",
    "description":"Фонари на мосту",
    "id":"04",
    "lat":"59.986119",
    "lon":"30.311439",
    "name":"Мост через Черную Речку в створе ул. Графова",
    "quest":"Число фонарей"
  },
  {
    "answer":"Alex",
    "description":"Флаги в подворотне дома",
    "id":"05",
    "lat":"59.965030",
    "lon":"30.307505",
    "name":"Ординарная ул., д. 8",
    "quest":"Слово на флагах"
  },
  {
    "answer":"23",
    "description":"",
    "id":"06",
    "lat":"59.988028",
    "lon":"30.296644",
    "name":"Карельский пер., д. 5",
    "quest":"Количество балконов на доме"
  },
  {
    "answer":"4",
    "description":"Эстакада развязки",
    "id":"07",
    "name":"Ушаковская развязка",
    "quest":"Количество пушек на эстакаде"
  },
  {
    "answer":"Знак",
    "description":"Дерево рядом с мостом",
    "id":"08",
    "lat":"59.981636",
    "lon":"30.293320",
    "name":"2-й Каменноостровский мост",
    "quest":"Знак"
  },
  {
    "answer":"5",
    "description":"Ближайшее к дому изображение рыбы на стене гаража",
    "id":"09",
    "lat":"59.984418",
    "lon":"30.293581",
    "name":"Приморский пр., д. 15",
    "quest":"Число пузырей"
  },
  {
    "answer":"Подпись",
    "description":"",
    "id":"10",
    "name":"наб. р. М. Невки, д. 18",
    "quest":"Подпись Судьи"
  },
  {
    "answer":"Знак",
    "description":"",
    "id":"11",
    "image":"http://img.runcity.org/img/routes/2007-cp11-med.jpg",
    "name":"Крепость недалеко от пересечения 1-й Березовой аллеи и Средней аллеи",
    "quest":"Знак"
  },
  {
    "answer":"34",
    "description":"Мемориальная доска на здании",
    "id":"12",
    "name":"наб. р. М. Невки д., 25",
    "quest":"Сумма цифр"
  },
  {
    "answer":"459",
    "description":"Почтовый ящик на доме",
    "id":"13",
    "lat":"59.978138",
    "lon":"30.283807",
    "name":"Большая аллея, д. 22и",
    "quest":"Номер"
  },
  {
    "answer":"Полевая аллея 6",
    "description":"Табличка на столбе",
    "id":"14",
    "name":"Площадь вокруг дома 10А по наб. р. Крестовки",
    "quest":"Адрес объекта \"К-4\""
  },
  {
    "answer":"Подпись",
    "description":"",
    "id":"15",
    "lat":"59.842734",
    "lon":"30.323423",
    "name":"Площадь, недалеко от перекрестка 2-й Березовой аллеи и Каменноостровского пр.",
    "quest":"Подпись Судьи"
  },
  {
    "answer":"0.26",
    "description":"Аншлаг на остановке автобусного маршрута №14 (посадка)",
    "id":"16",
    "lat":"59.961570",
    "lon":"30.253004",
    "name":"Петровская пл.",
    "quest":"Время отправления последнего рейса"
  },
  {
    "answer":"Рощин",
    "description":"Средняя скульптура у здания.",
    "id":"17",
    "lat":"59.981186",
    "lon":"30.299115",
    "name":"Каменноостровский пр., д. 68",
    "quest":"Фамилия спортсмена"
  },
  {
    "answer":"5, 6 ,7, 8, 18",
    "description":"Табличка с номерами квартир у входа на лестницу №4.",
    "id":"18",
    "lat":"59.972064",
    "lon":"30.274959",
    "name":"ул. Вакуленчука, д. 4",
    "quest":"Номера квартир на 2-м этаже"
  },
  {
    "answer":"5",
    "description":"",
    "id":"19",
    "name":"Постройка на углу Боковой и 2-й Березовой аллей",
    "quest":"Количество синих летающих тарелок, изображенных на постройке"
  },
  {
    "answer":"Подпись",
    "description":"",
    "id":"20",
    "lat":"59.970574",
    "lon":"30.246491",
    "name":"Бывшая трамвайная станция \"Приморский Парк Победы\"",
    "quest":"Подпись Судьи"
  },
  {
    "answer":"Павлов",
    "description":"Мемориальная доска на здании",
    "id":"21",
    "lat":"59.967966",
    "lon":"30.270018",
    "name":"пр. Динамо, д. 44",
    "quest":"Фамилия судьи"
  },
  {
    "answer":"8",
    "description":"Фонтан в сквере",
    "id":"22",
    "name":"Сквер на углу Малого пр. П.С. и ул. Красного курсанта",
    "quest":"Число ступенек \"лестницы\" к фонтану, обращенной в сторону ул. Красного Курсанта"
  },
  {
    "answer":"Ленинград",
    "description":"Табличка об ИВЦ",
    "id":"23",
    "lat":"59.967101",
    "lon":"30.282837",
    "name":"ул. Б. Зеленина, д. 43А",
    "quest":"Название города на табличке"
  },
  {
    "answer":"8",
    "description":"Металлическая композиция рядом с домом",
    "id":"24",
    "lat":"59.954318",
    "lon":"30.292332",
    "name":"Большой пр. П. С., д. 12",
    "quest":"Число струн"
  },
  {
    "answer":"Подпись",
    "description":"Троллейбусная остановка недалеко от входа в РНЦ \"Прикладная химия\"",
    "id":"25",
    "lat":"59.948411",
    "lon":"30.301792",
    "name":"пр. Добролюбова, д. 14",
    "quest":"Подпись Cудьи"
  },
  {
    "description":"Башенка на углу дома",
    "id":"26",
    "lat":"59.970772",
    "lon":"30.269084",
    "name":"Угол Еленинской ул и Морского пр.",
    "quest":"Количество окон на башне"
  },
  {
    "answer":"2",
    "description":"Памятник В.П.Чкалову",
    "id":"27",
    "lat":"59.957701",
    "lon":"30.287104",
    "name":"Чкаловский пр., д. 1",
    "quest":"Число Орденов Ленина на памятнике"
  },
  {
    "description":"Подворотня дома",
    "id":"28",
    "lat":"59.956638",
    "lon":"30.289664",
    "name":"ул. Красного Курсанта, д. 15/2",
    "quest":"Номера квартир в подворотне"
  },
  {
    "answer":"5",
    "description":"Мемориальная стела на углу у здания",
    "id":"29",
    "lat":"59.961057",
    "lon":"30.281840",
    "name":"Пионерская ул., д. 57",
    "quest":"Количество букв \"А\" в надписи"
  },
  {
    "answer":"Подпись",
    "description":"Мост со стороны Пионерской ул.",
    "id":"30",
    "lat":"59.964404",
    "lon":"30.274204",
    "name":"Лазаревский мост",
    "quest":"Подпись Cудьи"
  },
  {
    "answer":"кот, мыши",
    "description":"Детская площадка во дворе",
    "id":"31",
    "lat":"59.959715",
    "lon":"30.307136",
    "name":"Малая Пушкарская ул., д. 30",
    "quest":"Названия зверей, изображенных на качелях"
  },
  {
    "answer":"Знак",
    "description":"Трансформаторная будка",
    "id":"32",
    "name":"Изгиб Петровского пр. в районе д. 5",
    "quest":"Знак"
  },
  {
    "answer":"Гознак Санкт-Петербургу",
    "description":"Мемориальная доска на здании",
    "id":"33",
    "lat":"59.955138",
    "lon":"30.304558",
    "name":"ул. Лизы Чайкиной, д. 22",
    "quest":"Последние два слова"
  },
  {
    "answer":"Знак",
    "description":"Глухая стена в системе дворов",
    "id":"34",
    "lat":"59.951150",
    "lon":"30.300911",
    "name":"ул. Яблочкова, д. 3",
    "quest":"Знак"
  },
  {
    "answer":"Подпись",
    "description":"Клуб \"Камчатка\"",
    "id":"35",
    "lat":"59.951939",
    "lon":"30.301172",
    "name":"ул. Блохина, д. 15",
    "quest":"Подпись судьи"
  },
  {
    "answer":"Океан",
    "description":"Стена здания",
    "id":"36",
    "lat":"59.960976",
    "lon":"30.297929",
    "name":"Малый пр. П. С., д. 52",
    "quest":"Ответ на вопрос: \"Что было?\""
  },
  {
    "answer":"7",
    "description":"Участок ограды между зданием и Западным Артиллерийским мостом",
    "id":"37",
    "lat":"59.934813",
    "lon":"30.303130",
    "name":"Александровский сад д. 7",
    "quest":"Число фонарей на ограде"
  },
  {
    "answer":"Ши-Цза",
    "description":"Надпись на постаменте",
    "id":"38",
    "name":"Львы на набережной Невы, напротив Летнего сада",
    "quest":"Первое слово"
  },
  {
    "answer":"СССР",
    "description":"Мемориальная доска, посвященная В. М. Орешникову",
    "id":"39",
    "lat":"59.953655",
    "lon":"30.330277",
    "name":"Петровская наб., д. 4",
    "quest":"Аббревиатура на доске"
  },
  {
    "answer":"Подпись",
    "description":"Магазин \"Спортмастер\"",
    "id":"40",
    "lat":"59.793695",
    "lon":"30.324366",
    "name":"Пулковское шоссе",
    "quest":"Подпись судьи"
  },
  {
    "answer":"18",
    "description":"Большие круглые колонны по периметру здания",
    "id":"41",
    "lat":"59.877588",
    "lon":"30.325956",
    "name":"ул. Решетникова, д. 11",
    "quest":"Количество колонн"
  },
  {
    "answer":"проход здесь",
    "description":"Указатель на ограде вокруг церкви",
    "id":"42",
    "name":"Церковь Св. Николая на Предпортовой ул.",
    "quest":"Надпись на указателе"
  },
  {
    "answer":"6561",
    "description":"Трансформатроная будка во дворе",
    "id":"43",
    "lat":"59.874603",
    "lon":"30.300363",
    "name":"Благодатная ул., д. 5",
    "quest":"Номер ТБ"
  },
  {
    "answer":"45",
    "description":"Памятник Н. Г. Чернышевскому",
    "id":"44",
    "lat":"59.868523",
    "lon":"30.315922",
    "name":"пл. Чернышевского",
    "quest":"Сумма цифр на постаменте"
  },
  {
    "answer":"Подпись",
    "description":"",
    "id":"45",
    "lat":"59.886848",
    "lon":"30.319767",
    "name":"Сквер на ул. Глеба Успенского",
    "quest":"Подпись судьи"
  },
  {
    "answer":"448",
    "description":"",
    "id":"46",
    "lat":"59.899103",
    "lon":"30.317216",
    "name":"Московский пр., д. 79",
    "quest":"Максимальный номер квартиры"
  },
  {
    "answer":"Знак",
    "description":"Забор напротив КПП",
    "id":"47",
    "lat":"59.892076",
    "lon":"30.338443",
    "name":"Парковая ул., д. 5",
    "quest":"Знак"
  },
  {
    "answer":"5699",
    "description":"Трансформаторная будка в системе дворов",
    "id":"48",
    "lat":"59.910271",
    "lon":"30.314557",
    "name":"ул. Егорова, д. 26",
    "quest":"Номер ТБ"
  },
  {
    "answer":"16",
    "description":"Скульптура собаки в сквере рядом с домом",
    "id":"49",
    "lat":"59.922729",
    "lon":"30.341030",
    "name":"ул. Правды, д. 11",
    "quest":"Число когтей на всех лапах"
  },
  {
    "answer":"Подпись",
    "description":"Боковой съезд",
    "id":"50",
    "name":"Театр Юных Зрителей им. Брянцева",
    "quest":"Подпись судьи"
  },
  {
    "answer":"879",
    "description":"Трансформаторная будка в системе дворов",
    "id":"51",
    "lat":"59.930119",
    "lon":"30.350624",
    "name":"Дмитровский пер., д. 6",
    "quest":"Номер ТБ"
  },
  {
    "answer":"1898-2003",
    "description":"Проходная ТЭЦ-1",
    "id":"52",
    "lat":"59.922679",
    "lon":"30.324169",
    "name":"ул. Введенского канала, д. 2",
    "quest":"Годы на стене над проходной"
  },
  {
    "answer":"16",
    "description":"Металлические деревья",
    "id":"53",
    "name":"Участок м/у д. 2/12 по Свечному переулку и 14/1 по Б. Московской ул.",
    "quest":"Количество деревьев"
  },
  {
    "answer":"Фремм",
    "description":"Фасад здания",
    "id":"54",
    "lat":"59.930566",
    "lon":"30.351468",
    "name":"Стремянная ул., д. 11",
    "quest":"Название фирмы на вывеске на фасаде"
  },
  {
    "answer":"Подпись",
    "description":"",
    "id":"55",
    "lat":"59.930976",
    "lon":"30.350660",
    "name":"Сквер на углу Стремянной ул. и Дмитровского переулка",
    "quest":"Подпись судьи"
  },
  {
    "answer":"Знак",
    "description":"Дерево рядом с домом",
    "id":"56",
    "lat":"59.916149",
    "lon":"30.329873",
    "name":"Рузовская ул., д. 14",
    "quest":"Знак"
  },
  {
    "answer":"2",
    "description":"Памятник подводной лодке",
    "id":"57",
    "lat":"59.917276",
    "lon":"30.335990",
    "name":"ул. Марата, д. 90",
    "quest":"Количество лодок на памятнике"
  },
  {
    "answer":"Маринони",
    "description":"Памятная доска на здании",
    "id":"58",
    "lat":"59.919527",
    "lon":"30.351917",
    "name":"ул. Печатника Григорьева, д. 6",
    "quest":"Марка станка"
  },
  {
    "answer":"8",
    "description":"",
    "id":"59",
    "lat":"59.914173",
    "lon":"30.343949",
    "name":"Боровая ул., д. 52А",
    "quest":"Количество водосточных труб по периметру здания"
  },
  {
    "answer":"Подпись",
    "description":"Судья под эстакадой",
    "id":"60",
    "name":"Трамвайная эстакада на Прямом пр.",
    "quest":"Подпись судьи"
  },
  {
    "answer":"Знак",
    "description":"Постройка рядом с домом",
    "id":"62",
    "lat":"59.859384",
    "lon":"30.478526",
    "name":"пр. Обуховской обороны, д. 257",
    "quest":"Знак на постройке"
  },
  {
    "answer":"161-170",
    "description":"Лестница номер 17",
    "id":"64",
    "lat":"59.879240",
    "lon":"30.436323",
    "name":"Ул. Бабушкина, д. 61",
    "quest":"Диапазон квартир"
  },
  {
    "answer":"Печать",
    "description":"Татары",
    "id":"65",
    "name":"Участок, ограниченный р. Нева, р. Мурзинка и Рыбацким проспектом",
    "quest":"Печать"
  },
  {
    "answer":"1789",
    "description":"Мемориальная стела напротив дома",
    "id":"66",
    "lat":"59.841012",
    "lon":"30.498810",
    "name":"Рыбацкий пр., д. 19 к. 1",
    "quest":"Год на табличке"
  },
  {
    "answer":"Шотман",
    "description":"Бюсты рядом с музеем \"Невская застава\"",
    "id":"67",
    "lat":"60.047632",
    "lon":"30.293599",
    "name":"Новоалександровская ул., д. 23",
    "quest":"Фамилия на ближайшем к музею бюсте"
  },
  {
    "answer":"наб. правого берега невы д 214",
    "description":"Старая адресная табличка на здании",
    "id":"68",
    "lat":"59.871156",
    "lon":"30.472328",
    "name":"Октябрьская наб., д. 94, к. 1",
    "quest":"Адрес"
  },
  {
    "answer":"Знак",
    "description":"",
    "id":"69",
    "name":"Надземный пешеходный переход над ул. Рабфаковская",
    "quest":"Знак"
  },
  {
    "answer":"Подпись",
    "description":"Магазин ТС \"Настроение\"",
    "id":"70",
    "lat":"59.956989",
    "lon":"30.318824",
    "name":"Кронверкский пр., д. 23",
    "quest":"Подпись судьи"
  },
  {
    "answer":"1",
    "description":"Фасад здания",
    "id":"71",
    "lat":"59.931418",
    "lon":"30.299384",
    "name":"Почтамтская ул., д. 15",
    "quest":"Количество львиных голов на фасаде"
  },
  {
    "answer":"6",
    "description":"Мемориальная табличка, посвященная Н. В. Гоголю",
    "id":"72",
    "lat":"59.934943",
    "lon":"30.310667",
    "name":"Малая Морская ул., д. 17",
    "quest":"Количество букв \"О\""
  },
  {
    "answer":"1948, 1965",
    "description":"Мемориальная табличка на здании",
    "id":"73",
    "lat":"59.942516",
    "lon":"30.320971",
    "name":"Миллионная ул., д. 27",
    "quest":"Все годы на табличке"
  },
  {
    "answer":"Знак",
    "description":"Шахта лифта в системе дворов",
    "id":"74",
    "lat":"59.927360",
    "lon":"30.339566",
    "name":"ул. Ломоносова, д. 18",
    "quest":"Знак"
  },
  {
    "answer":"1",
    "description":"Лестница №2",
    "id":"75",
    "lat":"59.942791",
    "lon":"30.289601",
    "name":"Двинский переулок, д. 2",
    "quest":"Номер этажа без квартир, по данным таблички у входа"
  },
  {
    "answer":"2",
    "description":"Фасад здания, выходящий на переулок",
    "id":"76",
    "lat":"59.945504",
    "lon":"30.341183",
    "name":"Соляной переулок, д. 6",
    "quest":"Количество балконов"
  },
  {
    "answer":"1 или 2",
    "description":"",
    "id":"77",
    "lat":"59.943850",
    "lon":"30.288748",
    "name":"Кубанский переулок",
    "quest":"Общее количество балконов, выходящих в переулок"
  },
  {
    "answer":"Cu Zn Ga Kr",
    "description":"Мозаичное панно над проходной РНЦ \"Прикладная химия\"",
    "id":"78",
    "lat":"59.948411",
    "lon":"30.301792",
    "name":"пр. Добролюбова, д. 14",
    "quest":"Химические элементы, указанные на 5 строке"
  },
  {
    "answer":"4",
    "description":"Пруд в саду",
    "id":"79",
    "lat":"59.866820",
    "lon":"30.385146",
    "name":"Яблоневый сад в квартале, ограниченном Белградской ул., ул. Турку, Будапештской ул. и пр. Славы",
    "quest":"Число лестниц к воде"
  },
  {
    "answer":"145-180",
    "description":"Лестница №5",
    "id":"80",
    "lat":"59.870343",
    "lon":"30.399447",
    "name":"ул. Турку д. 22 к. 2",
    "quest":"Диапазон квартир"
  },
  {
    "answer":"3",
    "description":"Памятный камень",
    "id":"81",
    "name":"Пересечение Пловдивской ул. и Купчинской ул.",
    "quest":"Число букв \"П\" в надписи на камне"
  },
  {
    "answer":"м544рм",
    "description":"Надпись на тротуаре рядом с проходом",
    "id":"82",
    "name":"Проход между дд. 3 к.1 и 3 к. 3 по Моравскому переулку",
    "quest":"Номер машины"
  },
  {
    "answer":"00:28 00:03 00:42 00:15",
    "description":"Все автобусные остановки маршрута номер 56",
    "id":"83",
    "name":"Пересечение ул. Олеко Дундича и Будапештской ул.",
    "quest":"Все времена отправления последних рейсов по будним дням"
  },
  {
    "answer":"1 раз в год",
    "description":"Табличка у парадной о графике уборки",
    "id":"84",
    "lat":"59.908259",
    "lon":"30.347192",
    "name":"Лиговский пр., д. 212",
    "quest":"Частота мытья окон"
  },
  {
    "answer":"финский лебедь",
    "description":"Большой корабль",
    "id":"85",
    "name":"Участок ул. Турку напротив д. 23 к. 1",
    "quest":"Название корабля на русском языке"
  },
  {
    "answer":"639",
    "description":"Подъезд №1",
    "id":"86",
    "lat":"59.839402",
    "lon":"30.490438",
    "name":"Караваевская ул., д. 4",
    "quest":"Максимальный номер квартиры"
  },
  {
    "answer":"639",
    "description":"Почтовый ящик на вестибюле",
    "id":"87",
    "name":"Наземный вестибюль станции метро \"Обухово\"",
    "quest":"Номер"
  },
  {
    "answer":"Знак",
    "description":"Полуразрушенный дом рядом",
    "id":"88",
    "lat":"59.862352",
    "lon":"30.412653",
    "name":"Южное шоссе, д. 100",
    "quest":"Знак"
  },
  {
    "answer":"Лужский",
    "description":"Надпись на памятнике",
    "id":"89",
    "name":"Памятник добровольцам рядом с д. 8 по пр. Славы",
    "quest":"Название рубежа"
  },
  {
    "answer":"Подпись",
    "description":"Платформа по направлению к Санкт-Петербургу",
    "id":"90",
    "name":"Ж/д платформа \"Дачное\"",
    "quest":"Подпись судьи"
  },
  {
    "answer":"Барочная ул. - Б.Охта",
    "description":"Маршрутоуказатель",
    "id":"91",
    "name":"Памятник блокадному трамваю у д. 114 по пр. Стачек",
    "quest":"Конечные пункты маршрута"
  },
  {
    "answer":"6694",
    "description":"ТБ рядом с домом",
    "id":"92",
    "lat":"59.839723",
    "lon":"30.251225",
    "name":"ул. Танкиста Хрустицкого, д. 30",
    "quest":"Номер ТБ"
  },
  {
    "answer":"22",
    "description":"Мемориальная доска на здании",
    "id":"93",
    "lat":"59.834872",
    "lon":"30.263442",
    "name":"пр. Народного Ополчения, д. 131",
    "quest":"Сумма цифр"
  },
  {
    "description":"Табличка о внесении квартплаты рядом с лестницей №1",
    "id":"94",
    "lat":"59.842156",
    "lon":"30.271060",
    "name":"пр. Народного Ополчения д. 87/1",
    "quest":"Авторы обращения"
  },
  {
    "answer":"Подпись",
    "description":"Остров посреди пруда недалеко от дома",
    "id":"95",
    "lat":"59.848335",
    "lon":"30.237688",
    "name":"Дачный пр., д. 3 к.4",
    "quest":"Подпись судьи"
  },
  {
    "answer":"9",
    "description":"Лестница №1",
    "id":"96",
    "lat":"59.839895",
    "lon":"30.250363",
    "name":"Ул. Танкиста Хрустицкого, д. 18",
    "quest":"Максимальный номер квартиры"
  },
  {
    "answer":"5",
    "description":"Памятный камень рядом с ДОТом",
    "id":"97",
    "name":"ДОТ между домами 134 и 138 по Ленинскому пр.",
    "quest":"Количество слов в надписи, начинающихся на букву \"О\""
  },
  {
    "answer":"8",
    "description":"Здание усадьбы \"Александрино\"",
    "id":"98",
    "lat":"59.845116",
    "lon":"30.220305",
    "name":"Пр. Стачек, д. 226",
    "quest":"Количество больших круглых колонн по периметру здания"
  },
  {
    "answer":"Финиш",
    "description":"",
    "id":"99",
    "name":"Финиш, ЛЭТИ",
    "quest":"Финиш"
  },
  {
    "answer":"г 1978 1921 2000",
    "description":"Мемориальная табличка на здании",
    "id":"100",
    "lat":"59.955340",
    "lon":"30.287436",
    "name":"Офицерский переулок, д. 6",
    "quest":"Все годы на табличке"
  },
  {
    "answer":"1 или 2",
    "description":"Фасад здания",
    "id":"101",
    "lat":"59.917389",
    "lon":"30.327160",
    "name":"Рузовская ул., д. 9",
    "quest":"Количество ваз"
  },
  {
    "answer":"2",
    "description":"Участок ограды здания, выходящий на улицу",
    "id":"102",
    "lat":"59.925592",
    "lon":"30.355358",
    "name":"Коломенская ул., д. 6",
    "quest":"Количество кусков деревьев на ограде"
  },
  {
    "answer":"окно",
    "description":"Указатель на Новокрестовскую ул.",
    "id":"103",
    "lat":"59.974568",
    "lon":"30.270476",
    "name":"Депутатская ул., д. 34",
    "quest":"На какой объект указывает стрелка указателя"
  },
  {
    "answer":"10",
    "description":"",
    "id":"104",
    "lat":"59.962390",
    "lon":"30.280097",
    "name":"Средняя Колтовская ул., д. 9/11",
    "quest":"Номер автотранспортного предприятия"
  },
  {
    "answer":"Знак",
    "description":"Шахта лифта в системе дворов",
    "id":"105",
    "lat":"59.955903",
    "lon":"30.299591",
    "name":"Большая Пушкарская ул., д. 11",
    "quest":"Знак"
  },
  {
    "answer":"6",
    "description":"Проходная с надписью \"Стройся\"",
    "id":"106",
    "lat":"59.909093",
    "lon":"30.362563",
    "name":"наб. р. Волковки, д. 17",
    "quest":"Количество колонн"
  },
  {
    "answer":"устричный бар",
    "description":"Мемориальная доска, посвященная Говорову",
    "id":"107",
    "lat":"59.961435",
    "lon":"30.310972",
    "name":"Кронверкская ул., д. 27",
    "quest":"Название заведения рядом"
  },
  {
    "answer":"13",
    "description":"Постамент",
    "id":"108",
    "name":"Памятник на ул. Благоева",
    "quest":"Количество букв в подписи"
  },
  {
    "answer":"DUNYA",
    "description":"Дарственная надпись на камне за памятником Низами",
    "id":"109",
    "name":"Сквер между дд. 25 и 27 по Каменноостровскому пр.",
    "quest":"Первое слово на азербайджанском языке"
  },
  {
    "answer":"вновь посажено дерево",
    "description":"Табличка на ограде",
    "id":"110",
    "name":"Дерево, посаженное на месте дуба Петра Великого на Каменном острове",
    "quest":"Последние три слова"
  },
  {
    "answer":"дворянский",
    "description":"Мемориальная доска на здании",
    "id":"111",
    "lat":"59.958106",
    "lon":"30.284759",
    "name":"Угол Гимназического переулка и ул. Красного Курсанта",
    "quest":"Название полка"
  },
  {
    "answer":"5",
    "description":"Информационный стенд рядом с домом",
    "id":"113",
    "lat":"59.960724",
    "lon":"30.295378",
    "name":"Колпинская ул., д. 23",
    "quest":"Число пунктов в инструкции по использованию пакета гигиенического сбора"
  },
  {
    "answer":"Знак",
    "description":"Дерево на бульваре напротив дома",
    "id":"115",
    "lat":"59.844339",
    "lon":"30.272686",
    "name":"Счастливая ул., д. 7",
    "quest":"Знак"
  },
  {
    "answer":"5",
    "description":"Лифтовые шахты на доме",
    "id":"116",
    "lat":"59.873013",
    "lon":"30.331966",
    "name":"Свеаборгская ул., д. 19",
    "quest":"Число лифтовых шахт"
  },
  {
    "answer":"Знак",
    "description":"Опора",
    "id":"117",
    "lat":"59.885566",
    "lon":"30.496483",
    "name":"Путепровод \"Нева\"",
    "quest":"Знак"
  },
  {
    "answer":"гидроэлектромонтаж",
    "description":"Мемориальная доска о награждении знаменем",
    "id":"118",
    "lat":"59.965746",
    "lon":"30.306041",
    "name":"Малый пр. П. С., д. 83",
    "quest":"Самое длинное слово в надписи"
  },
  {
    "answer":"о",
    "description":"Надпись на фасаде",
    "id":"119",
    "lat":"59.914245",
    "lon":"30.339108",
    "name":"наб. Обводного канала, д. 62",
    "quest":"Буква в надписи с фонарем"
  },
  {
    "answer":"подпись",
    "description":"К северу от Васильевского и западу от Командорских. Восточнее Шелихова и севернее Добролюбова. Между морем и океаном. Между собором и зверинцем. Странное место. Сладкое слово.",
    "id":"120",
    "longanswer":"К северу от Васильевского острова, и к западу от Командорских островов. Восточнее залива Шелихова и севернее проспекта Добролюбова. Между Охотским морем и Тихим океаном. Между Князь-Владимирским собором и Зоопарком. Часть этих слов относится к полуострову Камчатка, часть к одноимённой ему легендарной ленинградской котельной. Виктор Цой «искал здесь вино, а нашёл третий глаз». В настоящее время в помещении бывшей котельной работает клуб, всё с тем же названием. Его адрес - ул.Блохина, д.15. Ответ: подпись",
    "name":"Загадка",
    "quest":"подпись судьи"
  },
  {
    "answer":"крокодил гена и чебурашка",
    "description":"Рисунки на трансформаторной будке во дворе",
    "id":"122",
    "lat":"59.815229",
    "lon":"30.292215",
    "name":"Штурманская ул., д. 34",
    "quest":"Ответ на вопрос: \"Кто летает на самолете\"?"
  },
  {
    "answer":"1,8 км (или 1,2 км)",
    "description":"См. рисунок Указатель на мосту",
    "id":"123",
    "image":"http://img.runcity.org/img/routes/2007-cp123-med.jpg",
    "longanswer":"На рисунке изображены ленты орденов СССР и городские топонимы, носящие имена прославленных полководцев: орден Кутузова - набережная Кутузова орден Александра Невского – площадь Александра Невского орден Ушакова – Ушаковский мост орден Нахимова - улица Нахимова орден Суворова – Суворовский проспект На Ушаковском мосту следовало прочитать расстояние до ресторана МакДональдс. Ответ: 1,8 км (или 1,2 км)",
    "name":"Загадка",
    "quest":"Расстояние до закусочной"
  },
  {
    "answer":"Подпись",
    "description":"См. фото Проспект, на котором сделан снимок. Магазин в доме 20.",
    "id":"124",
    "image":"http://img.runcity.org/img/routes/2007-cp124-med.jpg",
    "longanswer":"Снимок сделан на Чкаловском проспекте. В центре кадра - здание 56-й гимназии (дом № 35), за ним - верхушка телебашни. Какой именно магазин следовало искать в доме № 20 по тому же проспекту, было нетрудно догадаться, взглянув на бейджик участника. Ответ: Подпись",
    "name":"Загадка",
    "quest":"Подпись судьи"
  },
  {
    "answer":"Знак",
    "description":"В прошлом эта река была притоком другой. Теперь же она питает систему прудов в части города, именем которой и названа. Бетонное укрепление трубы в точке входа реки в кварталы жилой застройки.",
    "id":"126",
    "longanswer":"Вот что говорит \"Энциклопедия Санкт-Петербурга\": Дачная, речка на юго-западе города, бывший левый приток р. Красненькая. Названа в 19 в. по местности Дачное. В 1960-х гг. в ходе массовой жилой застройки засыпан нижний участок русла к северу от Ленинского пр. Верховья Дачной канализованы и используются в мелиоративных целях. От реки сохранилась система вытянутых благоустроенных прудов, соединенных протоками, расположенных в жилых кварталах между ул. Лени Голикова и Танкиста Хрустицкого, а также к северу от пр. Ветеранов (между Дачным и Ленинским проспектами). Знак участники находили в районе дома 96 по ул. Лёни Голикова. Ответ: Знак",
    "name":"Загадка",
    "quest":"Знак на бетонном укреплении у входа речки в кварталы"
  },
  {
    "answer":"1823",
    "description":"I. 112, 82.7 II. 200, 74.7 III. 305, 64.1 IV. 904, 16.8 V. 400, 72.3 VI. 194, 246.6 Трансформаторная будка во дворе д. 7 по IV-му номеру",
    "id":"127",
    "longanswer":"Указаны примерные расстояния в километрах и азимуты в градусах от Санкт-Петербурга на города Северо-Западного региона. I. Новая Ладога II. Лодейное поле III. Петрозаводск IV. Мончегорск V. Пудож VI. Гдов Названиями этих городов названы улицы Петроградского района. Ответ: 1823",
    "name":"Загадка",
    "quest":"номер ТБ"
  },
  {
    "answer":"12, 22",
    "description":"84, 23, 18, 21, 8, 39, 13 (Расшифровкой удобнее заниматься по адресу Московский пр., д. 19)",
    "id":"128",
    "longanswer":"По адресу Московский пр., д. 19 находится ВНИИМ им. Д. И. Менделеева, на стене здания которого изображена таблица периодической системы химических элементов. Глядя в таблицу, расшифровать загадку очень легко: 84 - Полоний (Po) 23 - Ванадий (V) 18 - Аргон (Ar) 21 - Скандий (Sc) 8 - Кислород (O) 39 - Иттрий (Y) Итого – PoVArScOY - Поварской пер. А 13 – это номер дома. Ответ: 12, 22",
    "name":"Загадка",
    "quest":"Номера квартир на 3-м этаже лестницы номер 3"
  },
  {
    "answer":"Подпись",
    "description":"В нашем городе нет улицы Винницкой (в отличие от Полтавской или Черниговской) и проспекта Бубнова (в отличие от Луначарского), но есть две другие, которые могли бы составить им отличную компанию. Соединяет существующие улицы проспект, номер дома по которому можно найти, вычтя 40 из номера последнего дома по чётной стороне проспекта. Беседка неподалеку от дома.",
    "id":"130",
    "longanswer":"Если к улицам Винницкой и Бубнова, которых в Санкт-Петербурге нет, добавить улицы Трефолева и Червонного Казачества, которые есть, то составится хорошая компания, то есть полный набор карточных мастей – вини (пики), буби, трефы (крести) и червы. Соединяет улицы Трефолева и Червонного Казачества проспект Стачек, чётная сторона которого заканчивается усадьбой «Александрино» с адресом пр. Стачек, д.226. А причём тут наркомы просвещения и украинские города? Да, просто, к слову пришлось. Беседка находится на острове, неподалёку от дома 186. Ответ: Подпись",
    "name":"Загадка",
    "quest":"Подпись судьи"
  },
  {
    "answer":"5",
    "description":"От дома 27 к дому 28 по этой улице нет ни пешеходного перехода, ни моста. Впрочем, это не должно помешать вам взять КП у дома 83.",
    "id":"131",
    "longanswer":"Чтобы кратчайшим путём попасть от дома 27 к дому 28 по улице Воронежской требуется не только пешеходный переход, чтобы перейти на другую сторону улицы, но и мост, чтобы перейти через Обводный канал, рассекающий улицу надвое. Ответ: 5",
    "name":"Загадка",
    "quest":"Число застекленных окон, выходящих на заданную улицу , дом 83"
  },
  {
    "answer":"Знак",
    "description":"См. рисунок Ищите во Фрунзенском, в 230 метрах от загаданного объекта, разрушенное сооружение на берегу водоёма",
    "id":"132",
    "image":"http://img.runcity.org/img/routes/2007-cp132-med.jpg",
    "longanswer":"На рисунке изображены ленты орденов Российской Империи, носивших имя святых, и указаны районы нахождения храмов, посвященных этим святым: орден св. Александра Невского - Александро-Невская Лавра орден св. князя Владимира – Князь-Владимирский собор на Петроградской стороне орден ап. Андрея Первозданного – Андреевский собор на Васильевском острове орден св. Георгия – церковь святого Георгия в парке Воинов-Интернационалистов В 320 м от церкви св. Георгия, на берегу водоёма, оставшегося от старого русла реки Волковки, находится полуразрушенное здание бывшей лодочная станции. Ответ: Знак",
    "name":"Загадка",
    "quest":"Знак"
  },
  {
    "answer":"Знак",
    "description":"Из топонимов, хранящих память места, славного высокими достижениями в некоторой сфере, выберите производный от второй части названия этого места Выход к железной дороге",
    "id":"133",
    "longanswer":"Достижениями атмосферных высот был славен Воздухоплавательный парк, располагавшийся в районе современной железнодорожной платформы с этим названием. А загадана была ул. Парковая и знак на заборе вблизи д. 8. Ответ: Знак",
    "name":"Загадка",
    "quest":"Знак на заборе"
  },
  {
    "answer":"Знак",
    "description":"См. фрагмент карты Ленинграда 1939 года Место, отмеченное на карте",
    "id":"134",
    "image":"http://img.runcity.org/img/routes/2007-cp134-med.jpg",
    "longanswer":"Можно попробовать наложить карту 1939 года на современную. От пригородных сельских поселений осталось лишь Южное шоссе, по которому и адресуется дом 62. Ответ: Знак",
    "name":"Загадка",
    "quest":"Знак на доме №62"
  },
  {
    "answer":"Печать",
    "description":"7 августа места в таблице распределялись следующим образом: 1) Сад 2) Гостиница 3) Стадион 4) Проспект Сегодня, пока сад ещё на том же месте - все в сад! Триста метров к югу от сада",
    "id":"135",
    "longanswer":"7 августа 2007 года турнирная таблица чемпионата России по футболу выглядела так: 1. Спартак (сад «Спартак» расположен на берегу Невы, в настоящее время накрыт Большим Обуховским мостом); 2. Зенит (стадион «Зенит» расположен рядом с телебашней); 3. Москва (гостиница «Москва» находится на пл. Александра Невского); 4. Динамо (проспект Динамо проходит на Крестовском острове). По состоянию чемпионата на день проведения соревнований ФК «Спартак» сохранил за собой первое место. Татарский стан можно было найти приблизительно в 300-х метрах южнее сада «Спартак» на реке Мурзинке. Ответ: Печать",
    "name":"Загадка",
    "quest":"Татары. Печать."
  },
  {
    "answer":"16, 17",
    "description":"См. видеоролик, который выдаётся на КП 124 второго этапа. Из улиц, ближайших к месту съемки, выберите ту, что «покрупнее». Двор дома 35, лестница №4 (в глубине двора).",
    "id":"136",
    "longanswer":"Географически неразорван был эпизод фильма «Питер FM» снятый на крыше ДК Связи, который стоит на Почтамтском пер. и Большой Морской ул. «Покрупнее», конечно, Большая Морская. Ответ: 16, 17",
    "name":"Загадка",
    "quest":"Номера квартир на 4-м этаже"
  },
  {
    "answer":"озероведения",
    "description":"Обычно мы не даем исторических справок в легендах категории Сфинкс",
    "history":"7 (19) октября 1852 года из Кронштадта вышел фрегат «Паллада», под командованием старпома И. С. Унковского. Путь фрегата лежал через три океана к берегам Японии. В кругосветное плавание на нем отправилась европейская дипломатическая миссия под руководством вице-адмирала Е. В. Путятина, секретарем которого стал бывший сотрудник российского министерства финансов, известный российский писатель Василий Александрович Гончаров. Помимо ведения общего журнала и других секретарских обязанностей, которые отнимали очень много времени, он занимался аранжировками с гардемаринами и сбором материала для своих книг. Путевые заметки впоследствии легли в основу сюиты «Фрегат «Паллада»» и оказали серьезное влияние на будущие романы «Обломов» и «Терек», наброски к которым существовали уже к началу плавания. К сожалению, этот «benin voyage» не удалось завершить из-за разразившейся Крымской войны. Тем не менее, в результате посещения Японии, в Ямантау был заключен русско-японский трактат, открывший русским купцам новозеландские порты и признававший Курильские острова к северу от о. Итуруп владением России. После прекращения миссии, фрегат Паллада прибыл в бухту Константиновскую Императорского озера (ныне бухта Постовая в Советской Гавани). Высоко сидящее судно не удалось ввести в реку Арал, и в 1956 году он был затоплен во избежание его захвата англо-французским флотом.",
    "id":"137",
    "longanswer":"В представленном ниже тексте исторической справки, содержавшейся на обороте листа с легендой, очевидно большое число фактических ошибок. Для разгадки следовало найти эти ошибки и составить из первых букв ошибочных слов и цифр адрес. Старпома. Старпом, конечно, может во внештатной ситуации принять командование кораблём, но она не возникла в самом начале успешной экспедиции, и фрегатом командовал капитан Унковский. Европейская. Вице-адмирал Путятин безусловно возглавлял российскую миссию. Василий. Автора романа фрегат \"Паллада\", ходившего на нём в плавание, звали Иваном Александровичем Гончаровым. Аранжировками. Не самое лучшее, чем может заниматься писатель с курсантами. Сюиты. И.А Гончаровым был написан роман \"Фрегат «Паллада». «Терек». А вот такого романа И.А.Гончаров не писал. benin. Voyage всё же Bon. Как было иначе зашифровать мягкий знак? Ямантау. Хорошее слово, очень по японски звучит. Однако это вершина Южного Урала. Новозеландские. Для российских купцов значительно большее значение имел доступ в японские порты. Озеро. Бухта Константиновская находилась в Императорской гавани. Высоко. Проблемы с заходом в реки могут возникнуть у корабля с низкой посадкой. Арал. Даже высоко сидящий корабль не мог дойти до Арала - лишь войти в Амур. 1956. Крымская война, во время которой фрегату угрожал захват англо-французским флотом, завершилась на сто лет раньше, в 1856 году. В итоге получаем - ул. Севастьянова, д.9. Институт озероведения. Ответ: озероведения",
    "name":"Загадка",
    "quest":"Табличка у входа в здание. Пятое слово на табличке"
  },
  {
    "answer":"подпись",
    "description":"См. фото Здание за спиной фигуры, изображенной на памятнике",
    "id":"140",
    "image":"http://img.runcity.org/img/routes/2007-cp140-med.jpg",
    "longanswer":"На фотографии изображён памятник А. С. Грибоедову на Пионерской пл. За спиной у фигуры, изображающей русского поэта и дипломата, находится здание Театра Юного Зрителя. Ответ: подпись",
    "name":"Загадка",
    "quest":"подпись судьи"
  },
  {
    "answer":"Знак",
    "description":"См. фрагмент карты Санкт-Петербурга 1913 года Место, отмеченное на карте",
    "id":"141",
    "image":"http://img.runcity.org/img/routes/2007-cp141-med.jpg",
    "longanswer":"На карте 1913 года изображены нынешние набережная Чёрной речки, улицы Старобельская, Лисичанская, Графова, Белоостровская. Ответ: Знак",
    "name":"Загадка",
    "quest":"Знак на бетонной плите"
  },
  {
    "answer":"Знак",
    "description":"Немного меняя своё естественное название, они сохраняют сквозную нумерацию",
    "id":"142",
    "longanswer":"Мостам, расположенным на Каменном острове, совершенно естественно называться как «Каменноостровскими мостами», так и «мостами на Каменном острове», так что логично, что для них сохранена сквозная нумерация. Ответ: Знак",
    "name":"Загадка",
    "quest":"Знак на номере 14"
  },
  {
    "answer":"Знак",
    "description":"От «минувшего» к «наступающему» через «текущее»",
    "id":"143",
    "longanswer":"Минуло старое, наступает новое. Течёт вода в реке. Железная дорога между станциями «Старая деревня» и «Новая деревня» пересекает Чёрную речку. Забор вблизи железнодорожного моста через Чёрную речку. Ответ: Знак",
    "name":"Загадка",
    "quest":"Знак на заборе"
  },
  {
    "answer":"Знак",
    "description":"См. схему Место, обозначенное на карте",
    "id":"144",
    "image":"http://img.runcity.org/img/routes/2007-cp144-med.jpg",
    "longanswer":"Изображённый на схеме треугольник железных дорог находится вблизи пересечения Лесного и 1-го Муринского проспектов. Ответ: Знак",
    "name":"Загадка",
    "quest":"Знак на дереве"
  },
  {
    "answer":"Знак",
    "description":"См. схему Место, обозначенное на карте",
    "id":"145",
    "image":"http://img.runcity.org/img/routes/2007-cp145-med.jpg",
    "longanswer":"Изображённое на схеме место - это Кронштадская площадь на пересечении проспектов: Ленинского, Дачного и Стачек. Ответ: Знак",
    "name":"Загадка",
    "quest":"Знак"
  }
]